[
    {
        "geo": {
            "lat": 43.76836966976315,
            "lng": 11.24113801248306
        },
        "name": "Campo da Basket del Boschetto",
        "genere": "Basket",
        "city": "Firenze"
    },
    {
        "geo": {
            "lat": 43.76845732553,
            "lng": 11.240652479765693
        },
        "name": "Campo da pallacanestro di Piazza Tasso",
        "genere": "Basket",
        "city": "Firenze"
    },
    {
        "geo": {
            "lat": 43.76655170982136,
            "lng": 11.203132035141763
        },
        "name": "Campo Da Basket Dell'Opera",
        "genere": "Basket",
        "city": "Firenze"
    },
    {
        "geo": {
            "lat": 43.76045036111361,
            "lng": 11.287935031838582
        },
        "name": "Campo da pallacanestro cardinale Elia dalla Costa",
        "genere": "Basket",
        "city": "Firenze"
    },
    {
        "geo": {
            "lat": 43.776816097533214,
            "lng": 11.267726112401807
        },
        "name": "Campino Basket Piazza D'Azeglio",
        "genere": "Basket",
        "city": "Firenze"
    },
    {
        "geo": {
            "lat": 43.779838578011834, 
            "lng": 11.230483959055597
        },
        "name": "Canestro cascine",
        "genere": "Basket",
        "city": "Firenze"
    },
    {
        "geo": {
            "lat": 43.78119343337712,
            "lng": 11.210852435624975
        },
        "name": "Campetto zona cascine",
        "genere": "Basket",
        "city": "Firenze"
    },
    {
        "geo": {
            "lat": 43.78557044923929, 
            "lng": 11.223843884506223
        },
        "name": "Campino Pallacanestro Cascine",
        "genere": "Basket",
        "city": "Firenze"
    },
    {
        "geo": {
            "lat": 43.786404130135146,
            "lng": 11.238567526526817
        },
        "name": "Campo da pallacanestro del giardino Maragliano",
        "genere": "Basket",
        "city": "Firenze"
    },
    {
        "geo": {
            "lat": 43.791926972396844,
            "lng": 11.218069907243246
        },
        "name": "Campo di pallacanestro di Castelnuovo Tedesco",
        "genere": "Basket",
        "city": "Firenze"
    },
    {
        "geo":{
            "lat": 43.79432351874701,
            "lng": 11.27147919692579
        },
        "name": "Campo di Pallacanestro libero dell'Area Pettini Burresi",
        "genere": "Basket",
        "city": "Firenze"
    },
    {
        "geo": {
            "lat": 43.794844494366814, 
            "lng": 11.19973752943329
        },
        "name": "Campo Pallacanestro Filippo Flamini",
        "genere": "Basket",
        "city": "Firenze"
    },
    {
        "geo": {
            "lat": 43.80005400078693,
            "lng": 11.243619756542946
        },
        "name": "Campo da pallacanestro del giardino Galileo",
        "genere": "Basket",
        "city": "Firenze"
    },
    {
        "geo": {
            "lat": 43.8003515476084,
            "lng": 11.222040068898698
        },
        "name": "Campo da basket Vamba",
        "genere": "Basket",
        "city": "Firenze"
    },
    {
        "geo": {
            "lat": 43.79923645859429, 
            "lng": 11.185132874117588
        },
        "name": "Campo pallacanestro San Piero a Quaracchi",
        "genere": "Basket",
        "city": "Firenze"
    },
    {
        "geo":{
            "lat": 43.7945280755431,
            "lng": 11.167280091525795
        },
        "name": "Playground Basket Via Pistoiese",
        "genere": "Basket",
        "city": "Firenze"
    },
    {
        "geo": {
            "lat": 43.78065965848979,
            "lng":  11.308034146875068
        },
        "name": "Playground La Torre",
        "genere": "Basket",
        "city": "Firenze"
    },
    {
        "geo": {
            "lat": 43.795034790252195, 
            "lng": 11.278336729679106
        },
        "name": "Campo di Pallacanestro libero dell'Area Pettini Burresi",
        "genere": "Basket",
        "city": "Firenze"
    },
    {
        "geo": {
            "lat": 43.80878471293471, 
            "lng": 11.23207779614924
        },
        "name": "Campo di pallacanestro del parco Lippi",
        "genere": "Basket",
        "city": "Firenze"
    }
]